 [
    {
        'nombre': 'Plaza España',
        'coords.latitude': 18.4771015,
        'coords.longitude': -69.8836957,
        'actividades': ['Gubernamentales',' Editoriales y Fundaciones', 'Tarima de espectaculos','A&B'],
        'urlImg': './assets/images/carpasimages/Plaza-de-Espana-RD.jpg',
    },
    {
        'nombre': 'Centro Indotel/República Digital',
        'coords.latitude': 18.4767721,
        'coords.longitude': -69.8837735,
        'actividades': ['Programa de Teatro'],
        'urlImg': './assets/images/carpasimages/jpg-70.jpg',
    },
    {
        'nombre': 'Centro Domínico-Alemán',
        'coords.latitude': 18.4765117,
        'coords.longitude': -69.8839479,
        'actividades': ['Competitividad e Innovación'],
        'urlImg': './assets/images/carpasimages/dominico-aleman.jpg',
    },
    {
        'nombre': 'Centro Cultural BanReservas',
        'coords.latitude': 18.4758957,
        'coords.longitude': -69.8839915,
        'actividades': ['Exposición Virgilio Díaz Grullón', 'Sala de Cine'],
        'urlImg': './assets/images/carpasimages/1.jpg',
    },
    {
        'nombre': 'Museo de las Casas Reales',
        'coords.latitude': 18.4752788,
        'coords.longitude': -69.8832786,
        'actividades': ['Café Bohemio', 'Conferencias Magistrale'],
        'urlImg': './assets/images/carpasimages/Museo-de-las-Casas-Reales-Santo-Domingo.jpg',
    },
    {
        'nombre': 'Capilla de los Remedios',
        'coords.latitude': 18.4752788,
        'coords.longitude': -69.8832786,
        'actividades': ['Sala de Puerto Rico'],
        'urlImg': './assets/images/carpasimages/cms-image-000022579.jpg',
    },
    {
        'nombre': 'Casa de los Jesuitas',
        'coords.latitude': 18.4752746,
        'coords.longitude': -69.8834547,
        'actividades': ['Autores Dominicanos'],
        'urlImg': './assets/images/carpasimages/download.jpg',
    },
    {
        'nombre': 'Centro de Capacitación Fundación Dominicana de Desarrollo',
        'coords.latitude': 18.475426,
        'coords.longitude': -69.8838935,
        'actividades': ['Sala Camila de Invitación a la Lectura'],
        'urlImg': './assets/images/carpasimages/Casa-de-las-Gargolas-2.jpg',
    },
    {
        'nombre': 'Escuela Nacional de Artes Visuales',
        'coords.latitude': 18.4739718,
        'coords.longitude': -69.8840901,
        'actividades': ['Talleres Literarios', 'Exposición de Universidades'],
        'urlImg': './assets/images/carpasimages/enav.jpg',
    },
    {
        'nombre': 'Academia de Ciencias',
        'coords.latitude': 18.4740003,
        'coords.longitude': -69.8833697,
        'actividades': ['Sala de Conferencias de las Universidades'],
        'urlImg': './assets/images/carpasimages/academia-ciencias.jpg',
    },
    {
        'nombre': 'Instituto Geográfico Universitario UASD',
        'coords.latitude': 18.4740003,
        'coords.longitude': -69.8833697,
        'actividades': [],
        'urlImg': './assets/images/carpasimages/m8r8lgNb_400x400.jpg',
    },
    {
        'nombre': 'Museo Trampolín Casa de Bastidas',
        'coords.latitude': 18.4737671,
        'coords.longitude': -69.8828264,
        'actividades': ['Tienda BonoCultura', 'Área Infantil'],
        'urlImg': './assets/images/carpasimages/la-casa-de-rodrigo-de-bastidas.jpeg',
    },
    {
        'nombre': 'Fortaleza Ozama',
        'coords.latitude': 18.4737671,
        'coords.longitude': -69.8828264,
        'actividades': ['Librerías', 'Gubernamentales', 'Café Literario', 'A&B'],
        'urlImg': './assets/images/carpasimages/photo0jpg.jpg',
    },
];